{"type":"FeatureCollection", "features": [
{"type":"Feature","geometry":{"type":"Point","coordinates":[109.923036111111,36.5040111111111]},"properties":{"lon":109.923036,"lat":36.504011,"name":"延长油田七里村采油厂关子口采油队","county":"延长县","town":"七里村街道办事处","street":"张家窑科村","admin_code":"610621001225"}},
{"type":"Feature","geometry":{"type":"Point","coordinates":[109.8721,35.5877194444444]},"properties":{"lon":109.8721,"lat":35.587719,"name":"黄龙县根福石料厂","county":"黄龙县","town":"石堡镇","street":"吉家河村委会算子村01号","admin_code":"610631100205"}},
{"type":"Feature","geometry":{"type":"Point","coordinates":[109.359722222222,36.7602777777778]},"properties":{"lon":109.359722,"lat":36.760278,"name":"铜川声威建材有限责任公司安塞分公司","county":"安塞区","town":"沿河湾","street":"工业园区","admin_code":"610603102400"}},
{"type":"Feature","geometry":{"type":"Point","coordinates":[109.543897222222,36.9529972222222]},"properties":{"lon":109.543897,"lat":36.952997,"name":"延安磊鑫食品有限公司","county":"宝塔区","town":"蟠龙","street":"潘龙村076","admin_code":"610602106200"}},
{"type":"Feature","geometry":{"type":"Point","coordinates":[109.368219444444,37.1874333333333]},"properties":{"lon":109.368219,"lat":37.187433,"name":"延长油田股份有限公司子长采油厂中山川联合站","county":"子长市","town":"安定","street":"白杨树坪村委会7号","admin_code":"610623103224"}},
{"type":"Feature","geometry":{"type":"Point","coordinates":[109.666163888889,37.0446944444444]},"properties":{"lon":109.666164,"lat":37.044694,"name":"延安市禾草沟二号煤矿有限公司","county":"子长市","town":"余家坪镇","street":"禾草沟村委会12号","admin_code":"610623108210"}},
{"type":"Feature","geometry":{"type":"Point","coordinates":[109.625161111111,37.1265361111111]},"properties":{"lon":109.625161,"lat":37.126536,"name":"延长油田股份有限公司子长采油厂子长联合站","county":"子长市","town":"瓦窑堡街道办事处","street":"闫家枣林村委会08号","admin_code":"610623001218"}},
{"type":"Feature","geometry":{"type":"Point","coordinates":[109.658716666667,37.1677138888889]},"properties":{"lon":109.658717,"lat":37.167714,"name":"子长县双富煤矿（普通合伙）","county":"子长市","town":"瓦窑堡街道办事处","street":"上冯家庄村委会07号","admin_code":"610623001221"}},
{"type":"Feature","geometry":{"type":"Point","coordinates":[109.676188888889,37.1071138888889]},"properties":{"lon":109.676189,"lat":37.107114,"name":"子长县富祥洗选精煤有限公司","county":"子长市","town":"瓦窑堡街道办事处","street":"陈家洼村委会38号","admin_code":"610623001214"}},
{"type":"Feature","geometry":{"type":"Point","coordinates":[109.8254,35.6197472222222]},"properties":{"lon":109.8254,"lat":35.619747,"name":"黄龙县杨窑科石料厂","county":"黄龙县","town":"石堡镇","street":"泄湖村委会杨窑科村01号号","admin_code":"610631100208"}},
{"type":"Feature","geometry":{"type":"Point","coordinates":[109.415530555556,35.7366305555556]},"properties":{"lon":109.415531,"lat":35.736631,"name":"洛川宏图商品混凝土搅拌有限责任公司","county":"洛川县","town":"凤栖镇","street":"石家庄桥","admin_code":"610629001213"}},
{"type":"Feature","geometry":{"type":"Point","coordinates":[108.985197222222,35.5752416666667]},"properties":{"lon":108.985197,"lat":35.575242,"name":"黄陵县南川二号煤炭实业有限责任公司","county":"黄陵县","town":"店头镇","street":"车村（石牛沟）","admin_code":"610632101210"}},
{"type":"Feature","geometry":{"type":"Point","coordinates":[109.0834611111111,37.07416666666667]},"properties":{"lon":109.09,"lat":37.07,"name":"长庆实业集团有限公司镰刀湾采油作业区","county":"安塞区","town":"镰刀湾","street":"中街","admin_code":"610603108200"}},
{"type":"Feature","geometry":{"type":"Point","coordinates":[108.915186111111,35.6618583333333]},"properties":{"lon":108.915186,"lat":35.661858,"name":"陕西黄陵二号煤矿有限公司","county":"黄陵县","town":"双龙镇","street":"西峪村","admin_code":"610632105205"}},
{"type":"Feature","geometry":{"type":"Point","coordinates":[109.347388888889,36.2884611111111]},"properties":{"lon":109.347389,"lat":36.288461,"name":"延安美水酒有限公司","county":"甘泉县","town":"美水街道办","street":"龙首村078号","admin_code":"610627001003"}},
{"type":"Feature","geometry":{"type":"Point","coordinates":[108.196141666667,36.8843694444444]},"properties":{"lon":108.196142,"lat":36.884369,"name":"延长油田股份有限公司吴起采油厂","county":"吴起县","town":"吴起镇","street":"南苑社区居委会石油小区向北500米号","admin_code":"610626001001"}},
{"type":"Feature","geometry":{"type":"Point","coordinates":[109.416761111111,35.7411111111111]},"properties":{"lon":109.416761,"lat":35.741111,"name":"伊天果汁（陕西）有限公司","county":"洛川县","town":"风栖镇","street":"作善","admin_code":"610629001218"}},
{"type":"Feature","geometry":{"type":"Point","coordinates":[109.353611111111,36.2536111111111]},"properties":{"lon":109.353611,"lat":36.253611,"name":"甘泉八千里食品有限责任公司","county":"甘泉县","town":"美水街道办","street":"姚店消防队东20米","admin_code":"610627001207"}},
{"type":"Feature","geometry":{"type":"Point","coordinates":[109.373652777777,36.3439722222222]},"properties":{"lon":109.373653,"lat":36.343972,"name":"甘泉刺榆酿造有限责任公司","county":"甘泉县","town":"劳山乡","street":"美泉村烈士陵园向西200米","admin_code":"610627"}},
{"type":"Feature","geometry":{"type":"Point","coordinates":[109.661419444444,36.6790194444444]},"properties":{"lon":109.661419,"lat":36.679019,"name":"彩虹（延安）新能源有限公司","county":"宝塔","town":"姚店","street":"高新技术开发区工业大道1号","admin_code":"610602"}},
{"type":"Feature","geometry":{"type":"Point","coordinates":[109.399930555556,35.7799638888889]},"properties":{"lon":109.399931,"lat":35.779964,"name":"洛川琦泉生物质发电有限公司","county":"洛川","town":"凤栖","street":"桥西村（洛川工业园区苹果关联加工区）","admin_code":"610629"}},
{"type":"Feature","geometry":{"type":"Point","coordinates":[109.085,37.0802777777778]},"properties":{"lon":109.085,"lat":37.080278,"name":"长庆油田分公司第四采油厂","county":"安塞","town":"化子坪","street":"化子坪","admin_code":"610603"}},
{"type":"Feature","geometry":{"type":"Point","coordinates":[109.216388888889,37.1863888888889]},"properties":{"lon":109.216389,"lat":37.186389,"name":"中国石油天然气股份有限公司长庆油田分公司坪北石油合作开发项目经理部","county":"安塞","town":"坪桥","street":"赵家湾","admin_code":"610603"}},
{"type":"Feature","geometry":{"type":"Point","coordinates":[109.852088888889,36.68885]},"properties":{"lon":109.852089,"lat":36.68885,"name":"陕西延长石油（集团）有限责任公司油田气化工科技公司","county":"延长","town":"黑家堡","street":"周家湾","admin_code":"610621"}},
{"type":"Feature","geometry":{"type":"Point","coordinates":[109.313333333333,36.8744444444444]},"properties":{"lon":109.313333,"lat":36.874444,"name":"延长油田股份有限公司杏子川采油厂","county":"安塞","town":"金明街道办","street":"城北","admin_code":"610603"}},
{"type":"Feature","geometry":{"type":"Point","coordinates":[108.18346111111111,36.912394444444445]},"properties":{"lon":108.18,"lat":36.91,"name":"长庆油田分公司第三采油厂吴起采油作业","county":"吴起县","town":"吴起","street":"洛源街002","admin_code":"610626"}},
{"type":"Feature","geometry":{"type":"Point","coordinates":[108.463744444444,37.0976888888889]},"properties":{"lon":108.463744,"lat":37.097689,"name":"中国石油天然气股份有限公司长庆油田分公司第三采油厂桐寨采油作业区","county":"吴起","town":"五谷城","street":"白草沟（村）、杨家沟组","admin_code":"610626"}},
{"type":"Feature","geometry":{"type":"Point","coordinates":[107.8975,36.9561111111111]},"properties":{"lon":107.8975,"lat":36.956111,"name":"长庆油田分公司第三采油厂新寨采油作业","county":"吴起县","town":"铁边城","street":"杨庙台向西大约1000米街（村）、门牌号","admin_code":"610626"}},
{"type":"Feature","geometry":{"type":"Point","coordinates":[109.54365,36.986125]},"properties":{"lon":109.54365,"lat":36.986125,"name":"延安市华龙煤业有限公司","county":"宝塔区","town":"蟠龙","street":"龙湾村","admin_code":"610602106255"}},
{"type":"Feature","geometry":{"type":"Point","coordinates":[109.326819444444,35.6077388888889]},"properties":{"lon":109.326819,"lat":35.607739,"name":"黄陵生态水泥有限公司","county":"黄陵县","town":"桥山街道办","street":"翟庄村","admin_code":"610632001203"}},
{"type":"Feature","geometry":{"type":"Point","coordinates":[109.069202777778,35.6567416666667]},"properties":{"lon":109.069203,"lat":35.656742,"name":"陕西陕煤黄陵矿业有限公司（一号煤矿）","county":"黄陵县","town":"店头镇","street":"鲁寺村","admin_code":"610632101204"}},
{"type":"Feature","geometry":{"type":"Point","coordinates":[109.484741666667,37.2837027777778]},"properties":{"lon":109.484742,"lat":37.283703,"name":"延长油田股份有限公司子长采油厂马鞍山联合站","county":"子长市","town":"涧峪岔镇","street":"墩梁村委会25号","admin_code":"610623106202"}},
{"type":"Feature","geometry":{"type":"Point","coordinates":[109.835388888889,37.0066305555556]},"properties":{"lon":109.835389,"lat":37.006631,"name":"陕西延长石油（集团）有限责任公司永坪炼油厂","county":"延川县","town":"永坪镇","street":"石油大道东段05","admin_code":"610622101002"}},
{"type":"Feature","geometry":{"type":"Point","coordinates":[110.231347222222,36.8300416666667]},"properties":{"lon":110.231347,"lat":36.830042,"name":"延川县屠宰厂","county":"延川县","town":"延水关镇","street":"马家河村委会南侧500米","admin_code":"610622102223"}},
{"type":"Feature","geometry":{"type":"Point","coordinates":[109.067422222222,35.6298361111111]},"properties":{"lon":109.067422,"lat":35.629836,"name":"陕西黄陵煤化工有限责任公司","county":"黄陵县","town":"店头镇","street":"曹家峪村","admin_code":"610632101211"}},
{"type":"Feature","geometry":{"type":"Point","coordinates":[109.366913888889,35.7546805555556]},"properties":{"lon":109.366914,"lat":35.754681,"name":"洛川县风栖街道办荣地砖厂","county":"洛川县","town":"凤栖镇","street":"荣地村","admin_code":"610629001224"}},
{"type":"Feature","geometry":{"type":"Point","coordinates":[107.846497222222,36.9929722222222]},"properties":{"lon":107.846497,"lat":36.992972,"name":"中国石油长庆油田分公司第八采油厂吴定采油作业区","county":"吴起县","town":"铁边城","street":"镇政府向北100米处","admin_code":"610626101200"}},
{"type":"Feature","geometry":{"type":"Point","coordinates":[109.614066666667,36.2472583333333]},"properties":{"lon":109.614067,"lat":36.247258,"name":"延长油田股份有限公司南泥湾采油厂松树林联合站","county":"宝塔区","town":"南泥湾镇","street":"松树林村","admin_code":"610602108220"}},
{"type":"Feature","geometry":{"type":"Point","coordinates":[109.654780555556,37.1052222222222]},"properties":{"lon":109.654781,"lat":37.105222,"name":"陕西兴旺煤矿有限公司","county":"子长市","town":"瓦窑堡街道办事处","street":"芽坪村委会13号","admin_code":"610623001213"}},
{"type":"Feature","geometry":{"type":"Point","coordinates":[109.765233333333,37.1781861111111]},"properties":{"lon":109.765233,"lat":37.178186,"name":"延长油田股份有限公司子长采油厂柳家坪联合站","county":"子长市","town":"杨家园则镇","street":"魏家岔村委会5号","admin_code":"610623101209"}},
{"type":"Feature","geometry":{"type":"Point","coordinates":[109.732302777778,37.1474888888889]},"properties":{"lon":109.732303,"lat":37.147489,"name":"子长县宏铃混凝土有限责任公司","county":"子长市","town":"瓦窑堡街道办事处","street":"李家沟村委会3号","admin_code":"610623001206"}},
{"type":"Feature","geometry":{"type":"Point","coordinates":[108.200908333333,36.8397222222222]},"properties":{"lon":108.200908,"lat":36.839722,"name":"吴起醋业有限责任公司","county":"吴起县","town":"吴起","street":"南苑社区居委会二中居宁花园向北1000米处号","admin_code":"610626001001"}},
{"type":"Feature","geometry":{"type":"Point","coordinates":[109.596466666667,36.6098694444444]},"properties":{"lon":109.596467,"lat":36.609869,"name":"延安联业工贸有限公司","county":"宝塔区","town":"川口","street":"偏桥","admin_code":"610602200204"}},
{"type":"Feature","geometry":{"type":"Point","coordinates":[109.464755555556,36.6589916666667]},"properties":{"lon":109.464756,"lat":36.658992,"name":"延安市万铸工贸有限责任公司","county":"宝塔区","town":"河庄坪","street":"小沟村","admin_code":"610602102205"}},
{"type":"Feature","geometry":{"type":"Point","coordinates":[109.573902777778,36.6318305555556]},"properties":{"lon":109.573903,"lat":36.631831,"name":"延安龙腾工贸有限公司","county":"宝塔区","town":"川口","street":"川口村龙腾工贸","admin_code":"610602200200"}},
{"type":"Feature","geometry":{"type":"Point","coordinates":[109.584441666667,36.6136194444444]},"properties":{"lon":109.584442,"lat":36.613619,"name":"延长油田股份有限公司南泥湾采油厂冯坪联合站","county":"宝塔区","town":"川口乡","street":"冯坪村","admin_code":"610602200202"}},
{"type":"Feature","geometry":{"type":"Point","coordinates":[109.864233333333,36.3271638888889]},"properties":{"lon":109.864233,"lat":36.327164,"name":"延安天立新能源有限公司","county":"宝塔区","town":"临镇","street":"姚家坡三连","admin_code":"610602109210"}},
{"type":"Feature","geometry":{"type":"Point","coordinates":[109.510036111111,36.6693388888889]},"properties":{"lon":109.510036,"lat":36.669339,"name":"延安市昌威商品混凝土有限公司","county":"宝塔区","town":"李渠","street":"碾庄村","admin_code":"610602103227"}},
{"type":"Feature","geometry":{"type":"Point","coordinates":[109.545227777778,36.6706166666667]},"properties":{"lon":109.545228,"lat":36.670617,"name":"宝塔区刘庄砖厂","county":"宝塔区","town":"李渠","street":"刘庄村","admin_code":"610602103231"}},
{"type":"Feature","geometry":{"type":"Point","coordinates":[109.678488888889,36.6891388888889]},"properties":{"lon":109.678489,"lat":36.689139,"name":"大唐陕西发电有限公司延安热电厂","county":"宝塔区","town":"姚店","street":"工业园区","admin_code":"610602104202"}},
{"type":"Feature","geometry":{"type":"Point","coordinates":[109.670180555556,36.68275]},"properties":{"lon":109.670181,"lat":36.68275,"name":"陕西中烟工业有限责任公司延安卷烟厂","county":"宝塔区","town":"姚店","street":"高新技术产业开发区工业大道","admin_code":"610602104201"}},
{"type":"Feature","geometry":{"type":"Point","coordinates":[109.353775,35.6510722222222]},"properties":{"lon":109.353775,"lat":35.651072,"name":"陕西延长石油（集团）有限责任公司延安炼油厂","county":"洛川县","town":"交口河镇","street":"交口河村委会04号","admin_code":"610629102200"}},
{"type":"Feature","geometry":{"type":"Point","coordinates":[109.910880555556,35.5965805555556]},"properties":{"lon":109.910881,"lat":35.596581,"name":"黄龙县浩宇商砼有限责任公司","county":"黄龙县","town":"石堡镇","street":"磊庄村委会虎沟门02号","admin_code":"610631100207"}},
{"type":"Feature","geometry":{"type":"Point","coordinates":[109.343055555556,36.2847222222222]},"properties":{"lon":109.343056,"lat":36.284722,"name":"延长油田股份有限公司下寺湾采油厂","county":"甘泉","town":"城关镇","street":"太皇山","admin_code":"610627"}},
{"type":"Feature","geometry":{"type":"Point","coordinates":[109.060233333333,35.656]},"properties":{"lon":109.060233,"lat":35.656,"name":"黄陵矿业煤矸石发电有限公司","county":"黄陵县","town":"店头镇","street":"鲁寺村","admin_code":"610632101204"}},
{"type":"Feature","geometry":{"type":"Point","coordinates":[109.43515,37.1014583333333]},"properties":{"lon":109.43515,"lat":37.101458,"name":"延长油田股份有限公司子长采油厂安定联合站","county":"子长市","town":"安定镇","street":"张家渠村委会18号","admin_code":"610623103213"}},
{"type":"Feature","geometry":{"type":"Point","coordinates":[109.650183333333,37.048475]},"properties":{"lon":109.650183,"lat":37.048475,"name":"延长油田股份有限公司子长采油厂余家坪项目部","county":"子长市","town":"余家坪镇","street":"禾草沟村委会22号","admin_code":"610623108210"}},
{"type":"Feature","geometry":{"type":"Point","coordinates":[109.621736111111,37.0518527777778]},"properties":{"lon":109.621736,"lat":37.051853,"name":"延安市禾草沟一号煤矿有限公司","county":"子长市","town":"余家坪镇","street":"庙砭村委会09号","admin_code":"610623108207"}},
{"type":"Feature","geometry":{"type":"Point","coordinates":[109.696372222222,37.0493444444444]},"properties":{"lon":109.696372,"lat":37.049344,"name":"子长县三军煤焦有限责任公司","county":"子长市","town":"余家坪镇","street":"郝家川村委会6号","admin_code":"610623108209"}},
{"type":"Feature","geometry":{"type":"Point","coordinates":[108.924775,35.6620222222222]},"properties":{"lon":108.924775,"lat":35.662022,"name":"黄陵矿业煤矸石发电有限公司(沮河电厂)","county":"黄陵县","town":"双龙镇","street":"西峪村","admin_code":"610632105205"}},
{"type":"Feature","geometry":{"type":"Point","coordinates":[109.659111111111,37.0748583333333]},"properties":{"lon":109.659111,"lat":37.074858,"name":"陕西鑫志安煤业有限公司","county":"子长市","town":"余家坪镇","street":"双刘湾村委会8号","admin_code":"610623108204"}},
{"type":"Feature","geometry":{"type":"Point","coordinates":[109.632163888889,37.0304277777778]},"properties":{"lon":109.632164,"lat":37.030428,"name":"陕西永明煤矿有限公司","county":"子长市","town":"余家坪镇","street":"胡家塌村委会04号","admin_code":"610623108208"}},
{"type":"Feature","geometry":{"type":"Point","coordinates":[109.549905555556,37.0695805555556]},"properties":{"lon":109.549906,"lat":37.069581,"name":"延安市禾草沟煤业有限公司","county":"子长市","town":"余家坪镇","street":"滴哨村委会13号","admin_code":"610623108212"}},
{"type":"Feature","geometry":{"type":"Point","coordinates":[109.627008333333,37.08285]},"properties":{"lon":109.627008,"lat":37.08285,"name":"子长县永兴煤矿","county":"子长市","town":"余家坪镇","street":"祁家沟村","admin_code":"610623108204"}},
{"type":"Feature","geometry":{"type":"Point","coordinates":[109.587222222222,37.1505555555556]},"properties":{"lon":109.587222,"lat":37.150556,"name":"子长县中达焦家沟煤业有限公司","county":"子长市","town":"瓦窑堡街道办事处","street":"栾家坪村委会1号","admin_code":"610623001223"}},
{"type":"Feature","geometry":{"type":"Point","coordinates":[109.083402777778,35.6456027777778]},"properties":{"lon":109.083403,"lat":35.645603,"name":"陕西轩辕圣地酒业有限公司","county":"黄陵县","town":"店头镇","street":"北川社区","admin_code":"610632101007"}},
{"type":"Feature","geometry":{"type":"Point","coordinates":[108.940722222222,35.4332361111111]},"properties":{"lon":108.940722,"lat":35.433236,"name":"陕西煤业集团黄陵建庄矿业有限公司","county":"黄陵县","town":"店头镇","street":"新村","admin_code":"610632101223"}},
{"type":"Feature","geometry":{"type":"Point","coordinates":[109.605936111111,37.14165]},"properties":{"lon":109.605936,"lat":37.14165,"name":"子长县自备煤矿（普通合伙）","county":"子长市","town":"瓦窑堡街道办事处","street":"栾家坪村委会11号","admin_code":"610623001223"}},
{"type":"Feature","geometry":{"type":"Point","coordinates":[109.35145,35.61155]},"properties":{"lon":109.35145,"lat":35.61155,"name":"陕西延长石油(集团)有限责任公司延安石油化工厂","county":"洛川县","town":"交口河镇","street":"交口街","admin_code":"610629"}},
{"type":"Feature","geometry":{"type":"Point","coordinates":[109.956944444444,36.5758333333333]},"properties":{"lon":109.956944,"lat":36.575833,"name":"延长油田股份有限公司七里村采油厂","county":"延长县","town":"七里村","street":"洧延路1号","admin_code":"610621"}},
{"type":"Feature","geometry":{"type":"Point","coordinates":[108.924691666667,35.4036166666667]},"properties":{"lon":108.924692,"lat":35.403617,"name":"陕西建新煤化有限责任公司","county":"黄陵县","town":"店头镇","street":"腰坪乡新村","admin_code":"610632101223"}},
{"type":"Feature","geometry":{"type":"Point","coordinates":[109.067458333333,35.6618388888889]},"properties":{"lon":109.067458,"lat":35.661839,"name":"陕西瑞能煤业有限责任公司","county":"黄陵县","town":"店头镇","street":"鲁寺村","admin_code":"610632101204"}}
]}
